{ "type": "FeatureCollection",
  "features": [
    {"type":"Feature","geometry":{"type":"Point","coordinates":[-122.445631,37.4677]},"properties":{"name":"Alpha","sells_surfboards":true,"gives_lessons":false}},
    {"type":"Feature","geometry":{"type":"Point","coordinates":[-122.021413,36.964529]},"properties":{"name":"Beta","sells_surfboards":true,"gives_lessons":false}},
    {"type":"Feature","geometry":{"type":"Point","coordinates":[-121.898761,36.614198]},"properties":{"name":"Gamma","sells_surfboards":false,"gives_lessons":false}},
    {"type":"Feature","geometry":{"type":"Point","coordinates":[-121.945217,36.567371]},"properties":{"name":"Delta","sells_surfboards":true,"gives_lessons":true}},
    {"type":"Feature","geometry":{"type":"Point","coordinates":[-121.932535,36.541697]},"properties":{"name":"Epsilon","sells_surfboards":false,"gives_lessons":true}},
    {"type":"Feature","geometry":{"type":"Point","coordinates":[-120.735025,35.179207]},"properties":{"name":"Zeta","sells_surfboards":true,"gives_lessons":true}},
    {"type":"Feature","geometry":{"type":"Point","coordinates":[-118.187678,33.742289]},"properties":{"name":"Eta","sells_surfboards":true,"gives_lessons":true}},
    {"type":"Feature","geometry":{"type":"Point","coordinates":[-117.780476,33.538011]},"properties":{"name":"Theta","sells_surfboards":false,"gives_lessons":true}},
    {"type":"Feature","geometry":{"type":"Point","coordinates":[-117.37587,33.18861]},"properties":{"name":"Iota","sells_surfboards":false,"gives_lessons":false}},
    {"type":"Feature","geometry":{"type":"Point","coordinates":[-117.278109,32.847138]},"properties":{"name":"Kappa","sells_surfboards":true,"gives_lessons":true}}
  ]
}
